[
  {
    "lon": -98.486481,
    "lat": 45.464699,
    "eclipse": "P",
    "t": [
      "17:45:35",
      "18:19:25",
      "18:56:05",
      "18:56:15",
      "19:32:55",
      "20:06:45"
    ],
    "name": "Aberdeen"
  },
  {
    "lon": -99.733139,
    "lat": 32.448738,
    "eclipse": "P",
    "t": [
      "17:18:45",
      "18:02:35",
      "18:37:15",
      "18:37:25",
      "19:12:25",
      "19:57:25"
    ],
    "name": "Abilene"
  },
  {
    "lon": -105.96027,
    "lat": 32.899529,
    "eclipse": "P",
    "t": [
      "17:12:35",
      "17:51:05",
      "18:28:05",
      "18:28:15",
      "19:05:55",
      "19:46:35"
    ],
    "name": "Alamogordo"
  },
  {
    "lon": -84.155739,
    "lat": 31.57851,
    "eclipse": "P",
    "t": [
      "17:43:45",
      "18:23:15",
      "19:02:15",
      "19:02:25",
      "19:40:45",
      "20:18:35"
    ],
    "name": "Albany"
  },
  {
    "lon": -73.756233,
    "lat": 42.65258,
    "eclipse": "P",
    "t": [
      "18:12:25",
      "18:54:35",
      "19:26:35",
      "19:26:45",
      "19:57:45",
      "20:36:45"
    ],
    "name": "Albany"
  },
  {
    "lon": -106.65114,
    "lat": 35.084492,
    "eclipse": "P",
    "t": [
      "17:16:45",
      "17:53:25",
      "18:30:45",
      "18:30:55",
      "19:08:55",
      "19:47:25"
    ],
    "name": "Albuquerque"
  },
  {
    "lon": -92.445137,
    "lat": 31.311291,
    "eclipse": "P",
    "t": [
      "17:27:45",
      "18:11:15",
      "18:47:35",
      "18:47:45",
      "19:24:05",
      "20:07:25"
    ],
    "name": "Alexandria"
  },
  {
    "lon": -78.394737,
    "lat": 40.518681,
    "eclipse": "P",
    "t": [
      "18:03:35",
      "18:46:25",
      "19:19:35",
      "19:19:45",
      "19:52:05",
      "20:32:05"
    ],
    "name": "Altoona"
  },
  {
    "lon": -101.8313,
    "lat": 35.222,
    "eclipse": "P",
    "t": [
      "17:21:55",
      "18:01:45",
      "18:38:15",
      "18:38:25",
      "19:15:25",
      "19:56:25"
    ],
    "name": "Amarillo"
  },
  {
    "lon": -117.9145,
    "lat": 33.835289,
    "eclipse": "P",
    "t": [
      "17:05:55",
      "17:35:55",
      "18:12:15",
      "18:12:25",
      "18:49:55",
      "19:22:35"
    ],
    "name": "Anaheim"
  },
  {
    "lon": -149.90028,
    "lat": 61.21806,
    "eclipse": "P",
    "t": [
      "15:42:05",
      "15:42:05",
      "15:42:05",
      "-1:58:-5",
      "-1:58:-5",
      "-1:58:-5"
    ],
    "name": "Anchorage"
  },
  {
    "lon": -111.54958,
    "lat": 33.415051,
    "eclipse": "P",
    "t": [
      "17:08:45",
      "17:43:15",
      "18:20:35",
      "18:20:45",
      "18:59:15",
      "19:35:55"
    ],
    "name": "Apache Junction"
  },
  {
    "lon": -82.554024,
    "lat": 35.600948,
    "eclipse": "P",
    "t": [
      "17:51:35",
      "18:32:55",
      "19:09:35",
      "19:09:45",
      "19:45:35",
      "20:24:45"
    ],
    "name": "Asheville"
  },
  {
    "lon": -83.377937,
    "lat": 33.960949,
    "eclipse": "P",
    "t": [
      "17:48:05",
      "18:28:45",
      "19:06:25",
      "19:06:35",
      "19:43:35",
      "20:22:15"
    ],
    "name": "Athens"
  },
  {
    "lon": -84.387978,
    "lat": 33.749001,
    "eclipse": "P",
    "t": [
      "17:45:55",
      "18:26:55",
      "19:04:25",
      "19:04:35",
      "19:41:35",
      "20:20:55"
    ],
    "name": "Atlanta"
  },
  {
    "lon": -81.974838,
    "lat": 33.47097,
    "eclipse": "P",
    "t": [
      "17:50:15",
      "18:30:05",
      "19:08:15",
      "19:08:25",
      "19:45:45",
      "20:23:25"
    ],
    "name": "Augusta"
  },
  {
    "lon": -97.743057,
    "lat": 30.267151,
    "eclipse": "T",
    "t": [
      "17:17:25",
      "18:02:35",
      "18:36:04",
      "18:37:51",
      "19:11:35",
      "19:57:55"
    ],
    "name": "Austin"
  },
  {
    "lon": -68.772652,
    "lat": 44.79884,
    "eclipse": "P",
    "t": [
      "18:20:45",
      "19:02:25",
      "19:32:45",
      "19:32:55",
      "20:02:25",
      "20:40:35"
    ],
    "name": "Bangor"
  },
  {
    "lon": -91.187469,
    "lat": 30.443319,
    "eclipse": "P",
    "t": [
      "17:28:25",
      "18:10:45",
      "18:48:25",
      "18:48:35",
      "19:26:05",
      "20:08:05"
    ],
    "name": "Baton Rouge"
  },
  {
    "lon": -95.969398,
    "lat": 28.982759,
    "eclipse": "P",
    "t": [
      "17:17:45",
      "18:01:35",
      "18:37:45",
      "18:37:55",
      "19:14:25",
      "19:58:55"
    ],
    "name": "Bay City"
  },
  {
    "lon": -94.101852,
    "lat": 30.08605,
    "eclipse": "P",
    "t": [
      "17:22:45",
      "18:06:25",
      "18:42:45",
      "18:42:55",
      "19:19:35",
      "20:03:25"
    ],
    "name": "Beaumont"
  },
  {
    "lon": -121.31531,
    "lat": 44.05817,
    "eclipse": "P",
    "t": [
      "17:30:15",
      "17:53:25",
      "18:25:05",
      "18:25:15",
      "18:57:35",
      "19:22:05"
    ],
    "name": "Bend"
  },
  {
    "lon": -75.370461,
    "lat": 40.625931,
    "eclipse": "P",
    "t": [
      "18:08:25",
      "18:49:55",
      "19:23:35",
      "19:23:45",
      "19:56:35",
      "20:35:05"
    ],
    "name": "Bethlehem"
  },
  {
    "lon": -108.50069,
    "lat": 45.783291,
    "eclipse": "P",
    "t": [
      "17:39:05",
      "18:07:55",
      "18:43:35",
      "18:43:45",
      "19:19:35",
      "19:49:25"
    ],
    "name": "Billings"
  },
  {
    "lon": -88.885307,
    "lat": 30.39603,
    "eclipse": "P",
    "t": [
      "17:32:45",
      "18:13:55",
      "18:52:25",
      "18:52:35",
      "19:30:55",
      "20:11:05"
    ],
    "name": "Biloxi"
  },
  {
    "lon": -86.80249,
    "lat": 33.52066,
    "eclipse": "P",
    "t": [
      "17:41:05",
      "18:23:05",
      "19:00:15",
      "19:00:25",
      "19:36:55",
      "20:17:35"
    ],
    "name": "Birmingham"
  },
  {
    "lon": -100.78374,
    "lat": 46.808331,
    "eclipse": "P",
    "t": [
      "17:46:25",
      "18:18:15",
      "18:54:25",
      "18:54:35",
      "19:31:05",
      "20:02:55"
    ],
    "name": "Bismarck"
  },
  {
    "lon": -116.20345,
    "lat": 43.613499,
    "eclipse": "P",
    "t": [
      "17:30:35",
      "17:56:45",
      "18:30:45",
      "18:30:55",
      "19:05:35",
      "19:33:05"
    ],
    "name": "Boise"
  },
  {
    "lon": -71.059769,
    "lat": 42.358429,
    "eclipse": "P",
    "t": [
      "18:16:15",
      "18:57:05",
      "19:29:45",
      "19:29:55",
      "20:01:25",
      "20:39:05"
    ],
    "name": "Boston"
  },
  {
    "lon": -111.03856,
    "lat": 45.679649,
    "eclipse": "P",
    "t": [
      "17:37:35",
      "18:05:15",
      "18:40:15",
      "18:40:25",
      "19:15:45",
      "19:44:25"
    ],
    "name": "Bozeman"
  },
  {
    "lon": -97.497482,
    "lat": 25.901751,
    "eclipse": "P",
    "t": [
      "17:09:45",
      "17:52:15",
      "18:29:45",
      "18:29:55",
      "19:07:45",
      "19:51:45"
    ],
    "name": "Brownsville"
  },
  {
    "lon": -78.878372,
    "lat": 42.886452,
    "eclipse": "T",
    "t": [
      "18:05:05",
      "18:48:25",
      "19:18:20",
      "19:22:06",
      "19:51:15",
      "20:32:05"
    ],
    "name": "Buffalo"
  },
  {
    "lon": -73.212067,
    "lat": 44.47588,
    "eclipse": "T",
    "t": [
      "18:14:25",
      "18:56:55",
      "19:26:07",
      "19:29:23",
      "19:57:55",
      "20:37:15"
    ],
    "name": "Burlington"
  },
  {
    "lon": -112.53474,
    "lat": 46.003819,
    "eclipse": "P",
    "t": [
      "17:37:35",
      "18:04:25",
      "18:38:45",
      "18:38:55",
      "19:13:45",
      "19:41:35"
    ],
    "name": "Butte"
  },
  {
    "lon": -81.949532,
    "lat": 26.562851,
    "eclipse": "P",
    "t": [
      "17:43:55",
      "18:19:05",
      "18:59:35",
      "18:59:45",
      "19:39:35",
      "20:13:05"
    ],
    "name": "Cape Coral"
  },
  {
    "lon": -89.51815,
    "lat": 37.305882,
    "eclipse": "T",
    "t": [
      "17:42:05",
      "18:26:55",
      "18:58:21",
      "19:02:27",
      "19:33:35",
      "20:17:15"
    ],
    "name": "Cape Girardeau"
  },
  {
    "lon": -104.22884,
    "lat": 32.42067,
    "eclipse": "P",
    "t": [
      "17:13:15",
      "17:53:35",
      "18:30:05",
      "18:30:15",
      "19:07:15",
      "19:49:25"
    ],
    "name": "Carlsbad"
  },
  {
    "lon": -106.31308,
    "lat": 42.866631,
    "eclipse": "P",
    "t": [
      "17:34:05",
      "18:05:55",
      "18:42:45",
      "18:42:55",
      "19:19:55",
      "19:52:45"
    ],
    "name": "Casper"
  },
  {
    "lon": -113.06189,
    "lat": 37.677479,
    "eclipse": "P",
    "t": [
      "17:17:45",
      "17:48:55",
      "18:25:45",
      "18:25:55",
      "19:03:35",
      "19:36:35"
    ],
    "name": "Cedar City"
  },
  {
    "lon": -91.644073,
    "lat": 42.008331,
    "eclipse": "P",
    "t": [
      "17:46:35",
      "18:26:45",
      "19:02:05",
      "19:02:15",
      "19:37:15",
      "20:16:35"
    ],
    "name": "Cedar Rapids"
  },
  {
    "lon": -88.243378,
    "lat": 40.116421,
    "eclipse": "P",
    "t": [
      "17:48:05",
      "18:31:55",
      "19:05:05",
      "19:05:15",
      "19:38:05",
      "20:20:35"
    ],
    "name": "Champaign"
  },
  {
    "lon": -79.930923,
    "lat": 32.776569,
    "eclipse": "P",
    "t": [
      "17:53:45",
      "18:32:05",
      "19:10:55",
      "19:11:05",
      "19:48:55",
      "20:24:55"
    ],
    "name": "Charleston"
  },
  {
    "lon": -81.632622,
    "lat": 38.349819,
    "eclipse": "P",
    "t": [
      "17:56:05",
      "18:38:55",
      "19:13:25",
      "19:13:35",
      "19:47:25",
      "20:27:45"
    ],
    "name": "Charleston"
  },
  {
    "lon": -80.843132,
    "lat": 35.227089,
    "eclipse": "P",
    "t": [
      "17:54:15",
      "18:34:35",
      "19:11:55",
      "19:12:05",
      "19:48:25",
      "20:26:25"
    ],
    "name": "Charlotte"
  },
  {
    "lon": -85.309677,
    "lat": 35.045631,
    "eclipse": "P",
    "t": [
      "17:45:45",
      "18:28:05",
      "19:04:25",
      "19:04:35",
      "19:40:25",
      "20:21:05"
    ],
    "name": "Chattanooga"
  },
  {
    "lon": -104.82025,
    "lat": 41.13998,
    "eclipse": "P",
    "t": [
      "17:31:25",
      "18:05:15",
      "18:42:25",
      "18:42:35",
      "19:20:15",
      "19:54:55"
    ],
    "name": "Cheyenne"
  },
  {
    "lon": -87.650047,
    "lat": 41.850029,
    "eclipse": "P",
    "t": [
      "17:51:35",
      "18:33:45",
      "19:07:35",
      "19:07:45",
      "19:41:05",
      "20:21:55"
    ],
    "name": "Chicago"
  },
  {
    "lon": -121.83748,
    "lat": 39.728489,
    "eclipse": "P",
    "t": [
      "17:19:15",
      "17:44:15",
      "18:17:25",
      "18:17:35",
      "18:51:45",
      "19:18:25"
    ],
    "name": "Chico"
  },
  {
    "lon": -84.514389,
    "lat": 39.12711,
    "eclipse": "P",
    "t": [
      "17:52:25",
      "18:36:55",
      "19:09:45",
      "19:09:55",
      "19:42:15",
      "20:24:45"
    ],
    "name": "Cincinnati"
  },
  {
    "lon": -87.359451,
    "lat": 36.52977,
    "eclipse": "P",
    "t": [
      "17:44:25",
      "18:28:45",
      "19:02:55",
      "19:03:05",
      "19:36:55",
      "20:19:45"
    ],
    "name": "Clarksville"
  },
  {
    "lon": -81.695412,
    "lat": 41.4995,
    "eclipse": "T",
    "t": [
      "17:59:35",
      "18:43:25",
      "19:13:44",
      "19:17:34",
      "19:47:15",
      "20:28:45"
    ],
    "name": "Cleveland"
  },
  {
    "lon": -103.20523,
    "lat": 34.4048,
    "eclipse": "P",
    "t": [
      "17:18:35",
      "17:58:15",
      "18:34:55",
      "18:35:05",
      "19:12:15",
      "19:53:15"
    ],
    "name": "Clovis"
  },
  {
    "lon": -116.17389,
    "lat": 33.680302,
    "eclipse": "P",
    "t": [
      "17:06:25",
      "17:37:45",
      "18:14:25",
      "18:14:35",
      "18:52:35",
      "19:26:15"
    ],
    "name": "Coachella"
  },
  {
    "lon": -96.334412,
    "lat": 30.627979,
    "eclipse": "P",
    "t": [
      "17:20:05",
      "18:05:15",
      "18:39:55",
      "18:40:05",
      "19:14:55",
      "20:00:35"
    ],
    "name": "College Station"
  },
  {
    "lon": -104.82136,
    "lat": 38.833881,
    "eclipse": "P",
    "t": [
      "17:26:25",
      "18:01:45",
      "18:39:15",
      "18:39:25",
      "19:17:15",
      "19:53:45"
    ],
    "name": "Colorado Springs"
  },
  {
    "lon": -81.034813,
    "lat": 34.00071,
    "eclipse": "P",
    "t": [
      "17:52:45",
      "18:32:25",
      "19:10:25",
      "19:10:35",
      "19:47:45",
      "20:25:05"
    ],
    "name": "Columbia"
  },
  {
    "lon": -92.334068,
    "lat": 38.95171,
    "eclipse": "P",
    "t": [
      "17:40:45",
      "18:23:25",
      "18:57:55",
      "18:58:05",
      "19:32:15",
      "20:14:25"
    ],
    "name": "Columbia"
  },
  {
    "lon": -84.987709,
    "lat": 32.460979,
    "eclipse": "P",
    "t": [
      "17:43:15",
      "18:23:45",
      "19:01:55",
      "19:02:05",
      "19:39:55",
      "20:18:45"
    ],
    "name": "Columbus"
  },
  {
    "lon": -82.998787,
    "lat": 39.961182,
    "eclipse": "P",
    "t": [
      "17:55:45",
      "18:40:05",
      "19:12:45",
      "19:12:55",
      "19:44:55",
      "20:26:55"
    ],
    "name": "Columbus"
  },
  {
    "lon": -85.50164,
    "lat": 36.162842,
    "eclipse": "P",
    "t": [
      "17:46:55",
      "18:30:05",
      "19:05:25",
      "19:05:35",
      "19:40:15",
      "20:21:45"
    ],
    "name": "Cookeville"
  },
  {
    "lon": -124.21789,
    "lat": 43.366501,
    "eclipse": "P",
    "t": [
      "17:28:05",
      "17:50:05",
      "18:20:35",
      "18:20:45",
      "18:51:55",
      "19:15:15"
    ],
    "name": "Coos Bay"
  },
  {
    "lon": -97.396378,
    "lat": 27.800579,
    "eclipse": "P",
    "t": [
      "17:13:15",
      "17:57:05",
      "18:33:15",
      "18:33:25",
      "19:09:55",
      "19:54:55"
    ],
    "name": "Corpus Christi"
  },
  {
    "lon": -96.806671,
    "lat": 32.783058,
    "eclipse": "T",
    "t": [
      "17:23:25",
      "18:08:25",
      "18:40:43",
      "18:44:31",
      "19:16:55",
      "20:02:35"
    ],
    "name": "Dallas"
  },
  {
    "lon": -90.577637,
    "lat": 41.52364,
    "eclipse": "P",
    "t": [
      "17:47:15",
      "18:28:15",
      "19:03:05",
      "19:03:15",
      "19:37:45",
      "20:17:55"
    ],
    "name": "Davenport"
  },
  {
    "lon": -100.89676,
    "lat": 29.36273,
    "eclipse": "T",
    "t": [
      "17:11:15",
      "17:56:05",
      "18:28:30",
      "18:31:55",
      "19:04:55",
      "19:51:35"
    ],
    "name": "Del Rio"
  },
  {
    "lon": -104.9847,
    "lat": 39.739151,
    "eclipse": "P",
    "t": [
      "17:28:25",
      "18:03:05",
      "18:40:25",
      "18:40:35",
      "19:18:15",
      "19:53:55"
    ],
    "name": "Denver"
  },
  {
    "lon": -93.609108,
    "lat": 41.60054,
    "eclipse": "P",
    "t": [
      "17:43:35",
      "18:23:05",
      "18:58:55",
      "18:59:05",
      "19:34:35",
      "20:13:35"
    ],
    "name": "Des Moines"
  },
  {
    "lon": -83.045753,
    "lat": 42.331429,
    "eclipse": "P",
    "t": [
      "17:58:35",
      "18:42:05",
      "19:14:15",
      "19:14:25",
      "19:46:05",
      "20:27:35"
    ],
    "name": "Detroit"
  },
  {
    "lon": -102.78962,
    "lat": 46.879181,
    "eclipse": "P",
    "t": [
      "17:45:05",
      "18:15:55",
      "18:51:55",
      "18:52:05",
      "19:28:25",
      "19:59:35"
    ],
    "name": "Dickinson"
  },
  {
    "lon": -100.01708,
    "lat": 37.7528,
    "eclipse": "P",
    "t": [
      "17:29:05",
      "18:08:15",
      "18:44:55",
      "18:45:05",
      "19:21:55",
      "20:01:35"
    ],
    "name": "Dodge City"
  },
  {
    "lon": -85.390488,
    "lat": 31.22323,
    "eclipse": "P",
    "t": [
      "17:40:45",
      "18:20:45",
      "18:59:35",
      "18:59:45",
      "19:38:15",
      "20:16:35"
    ],
    "name": "Dothan"
  },
  {
    "lon": -92.106583,
    "lat": 46.783272,
    "eclipse": "P",
    "t": [
      "17:54:05",
      "18:29:35",
      "19:05:35",
      "19:05:45",
      "19:41:25",
      "20:16:05"
    ],
    "name": "Duluth"
  },
  {
    "lon": -100.49952,
    "lat": 28.709141,
    "eclipse": "T",
    "t": [
      "17:10:25",
      "17:55:25",
      "18:27:31",
      "18:31:55",
      "19:04:35",
      "19:51:15"
    ],
    "name": "Eagle Pass"
  },
  {
    "lon": -91.498489,
    "lat": 44.811352,
    "eclipse": "P",
    "t": [
      "17:51:25",
      "18:28:55",
      "19:04:45",
      "19:04:55",
      "19:40:25",
      "20:17:05"
    ],
    "name": "Eau Claire"
  },
  {
    "lon": -106.48693,
    "lat": 31.75872,
    "eclipse": "P",
    "t": [
      "17:09:25",
      "17:48:35",
      "18:25:25",
      "18:25:35",
      "19:03:05",
      "19:44:15"
    ],
    "name": "El Paso"
  },
  {
    "lon": -115.76312,
    "lat": 40.83242,
    "eclipse": "P",
    "t": [
      "17:24:05",
      "17:51:55",
      "18:27:05",
      "18:27:15",
      "19:03:15",
      "19:32:45"
    ],
    "name": "Elko"
  },
  {
    "lon": -80.08506,
    "lat": 42.129219,
    "eclipse": "T",
    "t": [
      "18:02:35",
      "18:46:15",
      "19:16:21",
      "19:20:05",
      "19:49:35",
      "20:30:45"
    ],
    "name": "Erie"
  },
  {
    "lon": -123.08675,
    "lat": 44.052071,
    "eclipse": "P",
    "t": [
      "17:30:05",
      "17:52:15",
      "18:23:05",
      "18:23:15",
      "18:54:35",
      "19:18:05"
    ],
    "name": "Eugene"
  },
  {
    "lon": -124.16367,
    "lat": 40.802071,
    "eclipse": "P",
    "t": [
      "17:21:35",
      "17:44:45",
      "18:16:25",
      "18:16:35",
      "18:49:05",
      "19:13:45"
    ],
    "name": "Eureka"
  },
  {
    "lon": -87.555847,
    "lat": 37.974758,
    "eclipse": "T",
    "t": [
      "17:46:05",
      "18:30:55",
      "19:02:38",
      "19:05:41",
      "19:37:05",
      "20:20:25"
    ],
    "name": "Evansville"
  },
  {
    "lon": -147.71638,
    "lat": 64.837784,
    "eclipse": "P",
    "t": [
      "15:42:05",
      "15:42:05",
      "15:42:05",
      "-1:58:-5",
      "-1:58:-5",
      "-1:58:-5"
    ],
    "name": "Fairbanks"
  },
  {
    "lon": -96.789803,
    "lat": 46.87719,
    "eclipse": "P",
    "t": [
      "17:49:45",
      "18:23:15",
      "18:59:35",
      "18:59:45",
      "19:36:05",
      "20:09:15"
    ],
    "name": "Fargo"
  },
  {
    "lon": -108.21869,
    "lat": 36.728062,
    "eclipse": "P",
    "t": [
      "17:18:55",
      "17:53:35",
      "18:31:05",
      "18:31:15",
      "19:09:25",
      "19:45:45"
    ],
    "name": "Farmington"
  },
  {
    "lon": -90.421791,
    "lat": 37.78088,
    "eclipse": "T",
    "t": [
      "17:41:25",
      "18:26:15",
      "18:58:16",
      "19:00:52",
      "19:32:45",
      "20:16:25"
    ],
    "name": "Farmington"
  },
  {
    "lon": -94.157433,
    "lat": 36.06258,
    "eclipse": "P",
    "t": [
      "17:33:15",
      "18:17:45",
      "18:51:35",
      "18:51:45",
      "19:25:25",
      "20:09:45"
    ],
    "name": "Fayetteville"
  },
  {
    "lon": -83.649933,
    "lat": 41.04422,
    "eclipse": "T",
    "t": [
      "17:56:05",
      "18:40:05",
      "19:10:46",
      "19:14:28",
      "19:44:35",
      "20:26:35"
    ],
    "name": "Findlay"
  },
  {
    "lon": -111.65127,
    "lat": 35.198071,
    "eclipse": "P",
    "t": [
      "17:12:55",
      "17:46:15",
      "18:23:35",
      "18:23:45",
      "19:01:55",
      "19:37:25"
    ],
    "name": "Flagstaff"
  },
  {
    "lon": -79.762558,
    "lat": 34.195431,
    "eclipse": "P",
    "t": [
      "17:55:25",
      "18:34:35",
      "19:12:35",
      "19:12:45",
      "19:49:55",
      "20:26:35"
    ],
    "name": "Florence"
  },
  {
    "lon": -94.168022,
    "lat": 42.497471,
    "eclipse": "P",
    "t": [
      "17:44:35",
      "18:22:55",
      "18:59:05",
      "18:59:15",
      "19:35:05",
      "20:13:05"
    ],
    "name": "Fort Dodge"
  },
  {
    "lon": -94.398552,
    "lat": 35.385921,
    "eclipse": "P",
    "t": [
      "17:31:35",
      "18:16:35",
      "18:50:15",
      "18:50:25",
      "19:24:05",
      "20:08:45"
    ],
    "name": "Fort Smith"
  },
  {
    "lon": -85.12886,
    "lat": 41.1306,
    "eclipse": "P",
    "t": [
      "17:54:05",
      "18:38:05",
      "19:10:25",
      "19:10:35",
      "19:42:35",
      "20:24:45"
    ],
    "name": "Fort Wayne"
  },
  {
    "lon": -119.77237,
    "lat": 36.74773,
    "eclipse": "P",
    "t": [
      "17:12:25",
      "17:39:55",
      "18:15:05",
      "18:15:15",
      "18:51:15",
      "19:21:05"
    ],
    "name": "Fresno"
  },
  {
    "lon": -108.74258,
    "lat": 35.52808,
    "eclipse": "P",
    "t": [
      "17:15:55",
      "17:50:55",
      "18:28:25",
      "18:28:35",
      "19:06:45",
      "19:43:45"
    ],
    "name": "Gallup"
  },
  {
    "lon": -105.50222,
    "lat": 44.291088,
    "eclipse": "P",
    "t": [
      "17:37:45",
      "18:09:05",
      "18:45:35",
      "18:45:45",
      "19:22:35",
      "19:54:35"
    ],
    "name": "Gillette"
  },
  {
    "lon": -97.032852,
    "lat": 47.925259,
    "eclipse": "P",
    "t": [
      "17:51:25",
      "18:24:05",
      "19:00:15",
      "19:00:25",
      "19:36:25",
      "20:08:45"
    ],
    "name": "Grand Forks"
  },
  {
    "lon": -98.34201,
    "lat": 40.925011,
    "eclipse": "P",
    "t": [
      "17:37:05",
      "18:14:35",
      "18:51:25",
      "18:51:35",
      "19:28:25",
      "20:06:05"
    ],
    "name": "Grand Island"
  },
  {
    "lon": -108.55065,
    "lat": 39.063869,
    "eclipse": "P",
    "t": [
      "17:23:55",
      "17:56:55",
      "18:34:15",
      "18:34:25",
      "19:12:15",
      "19:46:35"
    ],
    "name": "Grand Junction"
  },
  {
    "lon": -85.668091,
    "lat": 42.96336,
    "eclipse": "P",
    "t": [
      "17:55:45",
      "18:37:35",
      "19:11:05",
      "19:11:15",
      "19:44:25",
      "20:24:35"
    ],
    "name": "Grand Rapids"
  },
  {
    "lon": -111.30081,
    "lat": 47.50024,
    "eclipse": "P",
    "t": [
      "17:41:35",
      "18:08:05",
      "18:42:05",
      "18:42:15",
      "19:16:45",
      "19:44:05"
    ],
    "name": "Great Falls"
  },
  {
    "lon": -88.019829,
    "lat": 44.519161,
    "eclipse": "P",
    "t": [
      "17:55:05",
      "18:34:15",
      "19:09:05",
      "19:09:15",
      "19:43:45",
      "20:21:45"
    ],
    "name": "Green Bay"
  },
  {
    "lon": -91.059776,
    "lat": 33.408981,
    "eclipse": "P",
    "t": [
      "17:33:25",
      "18:17:35",
      "18:52:55",
      "18:53:05",
      "19:28:15",
      "20:11:45"
    ],
    "name": "Greenville"
  },
  {
    "lon": -77.366348,
    "lat": 35.612659,
    "eclipse": "P",
    "t": [
      "18:01:15",
      "18:40:15",
      "19:17:35",
      "19:17:45",
      "19:54:05",
      "20:30:25"
    ],
    "name": "Greenville"
  },
  {
    "lon": -77.719994,
    "lat": 39.641762,
    "eclipse": "P",
    "t": [
      "18:03:55",
      "18:45:45",
      "19:19:55",
      "19:20:05",
      "19:53:25",
      "20:32:25"
    ],
    "name": "Hagerstown"
  },
  {
    "lon": -76.884422,
    "lat": 40.273701,
    "eclipse": "P",
    "t": [
      "18:05:45",
      "18:47:45",
      "19:21:25",
      "19:21:35",
      "19:54:35",
      "20:33:25"
    ],
    "name": "Harrisburg"
  },
  {
    "lon": -89.290337,
    "lat": 31.32712,
    "eclipse": "P",
    "t": [
      "17:33:25",
      "18:15:15",
      "18:53:05",
      "18:53:15",
      "19:30:45",
      "20:11:45"
    ],
    "name": "Hattiesburg"
  },
  {
    "lon": -99.326767,
    "lat": 38.879181,
    "eclipse": "P",
    "t": [
      "17:31:55",
      "18:10:35",
      "18:47:15",
      "18:47:25",
      "19:24:15",
      "20:03:25"
    ],
    "name": "Hays"
  },
  {
    "lon": -114.98194,
    "lat": 36.0397,
    "eclipse": "P",
    "t": [
      "17:12:45",
      "17:43:35",
      "18:20:15",
      "18:20:25",
      "18:58:05",
      "19:31:05"
    ],
    "name": "Henderson"
  },
  {
    "lon": -92.937691,
    "lat": 47.427151,
    "eclipse": "P",
    "t": [
      "17:54:15",
      "18:28:55",
      "19:04:55",
      "19:05:05",
      "19:40:55",
      "20:14:55"
    ],
    "name": "Hibbing"
  },
  {
    "lon": -81.341202,
    "lat": 35.733189,
    "eclipse": "P",
    "t": [
      "17:53:55",
      "18:34:45",
      "19:11:35",
      "19:11:45",
      "19:47:45",
      "20:26:15"
    ],
    "name": "Hickory"
  },
  {
    "lon": -155.09073,
    "lat": 19.72991,
    "eclipse": "P",
    "t": [
      "16:28:55",
      "16:46:35",
      "17:11:25",
      "17:11:35",
      "17:37:25",
      "17:57:05"
    ],
    "name": "Hilo"
  },
  {
    "lon": -81.595947,
    "lat": 31.84688,
    "eclipse": "P",
    "t": [
      "17:49:25",
      "18:27:55",
      "19:07:05",
      "19:07:15",
      "19:45:35",
      "20:21:55"
    ],
    "name": "Hinesville"
  },
  {
    "lon": -103.13604,
    "lat": 32.70261,
    "eclipse": "P",
    "t": [
      "17:15:15",
      "17:56:05",
      "18:32:15",
      "18:32:25",
      "19:09:05",
      "19:51:45"
    ],
    "name": "Hobbs"
  },
  {
    "lon": -157.85834,
    "lat": 21.30694,
    "eclipse": "P",
    "t": [
      "16:33:35",
      "16:49:45",
      "17:12:55",
      "17:13:05",
      "17:37:05",
      "17:54:55"
    ],
    "name": "Honolulu"
  },
  {
    "lon": -95.363274,
    "lat": 29.763281,
    "eclipse": "P",
    "t": [
      "17:20:15",
      "18:04:15",
      "18:40:05",
      "18:40:15",
      "19:16:25",
      "20:01:05"
    ],
    "name": "Houston"
  },
  {
    "lon": -84.124657,
    "lat": 39.843948,
    "eclipse": "T",
    "t": [
      "17:53:55",
      "18:38:15",
      "19:09:33",
      "19:12:29",
      "19:43:15",
      "20:25:35"
    ],
    "name": "Huber Heights"
  },
  {
    "lon": -86.585938,
    "lat": 34.7304,
    "eclipse": "P",
    "t": [
      "17:43:05",
      "18:25:55",
      "19:02:05",
      "19:02:15",
      "19:37:55",
      "20:19:05"
    ],
    "name": "Huntsville"
  },
  {
    "lon": -112.03414,
    "lat": 43.466579,
    "eclipse": "P",
    "t": [
      "17:31:55",
      "18:00:25",
      "18:35:55",
      "18:36:05",
      "19:12:05",
      "19:41:45"
    ],
    "name": "Idaho Falls"
  },
  {
    "lon": -86.158043,
    "lat": 39.768379,
    "eclipse": "T",
    "t": [
      "17:50:45",
      "18:35:05",
      "19:06:04",
      "19:09:51",
      "19:40:25",
      "20:23:05"
    ],
    "name": "Indianapolis"
  },
  {
    "lon": -116.21677,
    "lat": 33.720699,
    "eclipse": "P",
    "t": [
      "17:06:35",
      "17:37:45",
      "18:14:35",
      "18:14:45",
      "18:52:35",
      "19:26:15"
    ],
    "name": "Indio"
  },
  {
    "lon": -91.530167,
    "lat": 41.661129,
    "eclipse": "P",
    "t": [
      "17:46:15",
      "18:26:45",
      "19:01:55",
      "19:02:05",
      "19:36:55",
      "20:16:35"
    ],
    "name": "Iowa City"
  },
  {
    "lon": -82.692383,
    "lat": 38.45647,
    "eclipse": "P",
    "t": [
      "17:54:35",
      "18:37:55",
      "19:11:55",
      "19:12:05",
      "19:45:35",
      "20:26:35"
    ],
    "name": "Ironville"
  },
  {
    "lon": -117.82311,
    "lat": 33.66946,
    "eclipse": "P",
    "t": [
      "17:05:35",
      "17:35:45",
      "18:12:05",
      "18:12:15",
      "18:49:55",
      "19:22:35"
    ],
    "name": "Irvine"
  },
  {
    "lon": -90.184807,
    "lat": 32.298759,
    "eclipse": "P",
    "t": [
      "17:33:15",
      "18:16:05",
      "18:52:55",
      "18:53:05",
      "19:29:25",
      "20:11:45"
    ],
    "name": "Jackson"
  },
  {
    "lon": -88.81395,
    "lat": 35.614521,
    "eclipse": "P",
    "t": [
      "17:40:35",
      "18:25:05",
      "18:59:25",
      "18:59:35",
      "19:33:45",
      "20:16:55"
    ],
    "name": "Jackson"
  },
  {
    "lon": -81.655647,
    "lat": 30.33218,
    "eclipse": "P",
    "t": [
      "17:47:55",
      "18:25:25",
      "19:05:05",
      "19:05:15",
      "19:44:15",
      "20:19:45"
    ],
    "name": "Jacksonville"
  },
  {
    "lon": -98.708443,
    "lat": 46.910542,
    "eclipse": "P",
    "t": [
      "17:48:15",
      "18:20:55",
      "18:57:15",
      "18:57:25",
      "19:33:45",
      "20:06:15"
    ],
    "name": "Jamestown"
  },
  {
    "lon": -90.704277,
    "lat": 35.8423,
    "eclipse": "T",
    "t": [
      "17:37:55",
      "18:23:05",
      "18:55:33",
      "18:58:02",
      "19:30:15",
      "20:14:35"
    ],
    "name": "Jonesboro"
  },
  {
    "lon": -134.41972,
    "lat": 58.301941,
    "eclipse": "P",
    "t": [
      "18:10:25",
      "18:19:25",
      "18:33:05",
      "18:33:15",
      "18:46:55",
      "18:56:05"
    ],
    "name": "Juneau"
  },
  {
    "lon": -156.47432,
    "lat": 20.88953,
    "eclipse": "P",
    "t": [
      "16:32:15",
      "16:48:55",
      "17:12:45",
      "17:12:55",
      "17:37:45",
      "17:56:15"
    ],
    "name": "Kahului"
  },
  {
    "lon": -114.31291,
    "lat": 48.195789,
    "eclipse": "P",
    "t": [
      "17:42:05",
      "18:06:35",
      "18:39:25",
      "18:39:35",
      "19:12:45",
      "19:38:15"
    ],
    "name": "Kalispell"
  },
  {
    "lon": -94.578568,
    "lat": 39.099731,
    "eclipse": "P",
    "t": [
      "17:37:55",
      "18:19:15",
      "18:54:35",
      "18:54:45",
      "19:30:05",
      "20:11:05"
    ],
    "name": "Kansas City"
  },
  {
    "lon": -72.278137,
    "lat": 42.933689,
    "eclipse": "P",
    "t": [
      "18:14:45",
      "18:56:35",
      "19:28:25",
      "19:28:35",
      "19:59:35",
      "20:38:05"
    ],
    "name": "Keene"
  },
  {
    "lon": -99.14032,
    "lat": 30.04743,
    "eclipse": "T",
    "t": [
      "17:14:55",
      "17:59:55",
      "18:32:08",
      "18:36:32",
      "19:09:05",
      "19:55:25"
    ],
    "name": "Kerrville"
  },
  {
    "lon": -81.781631,
    "lat": 24.555241,
    "eclipse": "P",
    "t": [
      "17:42:45",
      "18:16:25",
      "18:56:55",
      "18:57:05",
      "19:36:55",
      "20:09:05"
    ],
    "name": "Key West"
  },
  {
    "lon": -97.85611,
    "lat": 27.515869,
    "eclipse": "P",
    "t": [
      "17:12:05",
      "17:55:55",
      "18:32:05",
      "18:32:15",
      "19:08:35",
      "19:53:55"
    ],
    "name": "Kingsville"
  },
  {
    "lon": -121.78167,
    "lat": 42.224869,
    "eclipse": "P",
    "t": [
      "17:25:35",
      "17:49:15",
      "18:21:35",
      "18:21:45",
      "18:54:45",
      "19:20:05"
    ],
    "name": "Klamath Falls"
  },
  {
    "lon": -83.920738,
    "lat": 35.96064,
    "eclipse": "P",
    "t": [
      "17:49:25",
      "18:31:45",
      "19:07:45",
      "19:07:55",
      "19:43:15",
      "20:23:25"
    ],
    "name": "Knoxville"
  },
  {
    "lon": -84.555527,
    "lat": 42.732529,
    "eclipse": "P",
    "t": [
      "17:56:55",
      "18:39:35",
      "19:12:25",
      "19:12:35",
      "19:45:05",
      "20:25:45"
    ],
    "name": "Lansing"
  },
  {
    "lon": -99.507538,
    "lat": 27.506411,
    "eclipse": "P",
    "t": [
      "17:09:25",
      "17:54:05",
      "18:29:05",
      "18:29:15",
      "19:04:45",
      "19:51:05"
    ],
    "name": "Laredo"
  },
  {
    "lon": -115.13722,
    "lat": 36.174969,
    "eclipse": "P",
    "t": [
      "17:13:05",
      "17:43:35",
      "18:20:15",
      "18:20:25",
      "18:58:05",
      "19:30:45"
    ],
    "name": "Las Vegas"
  },
  {
    "lon": -98.390327,
    "lat": 34.608688,
    "eclipse": "P",
    "t": [
      "17:24:45",
      "18:07:45",
      "18:42:45",
      "18:42:55",
      "19:18:15",
      "20:01:55"
    ],
    "name": "Lawton"
  },
  {
    "lon": -84.458549,
    "lat": 38.049801,
    "eclipse": "P",
    "t": [
      "17:51:05",
      "18:34:55",
      "19:08:55",
      "19:09:05",
      "19:42:25",
      "20:24:15"
    ],
    "name": "Lexington-Fayette"
  },
  {
    "lon": -100.921,
    "lat": 37.043079,
    "eclipse": "P",
    "t": [
      "17:26:35",
      "18:05:45",
      "18:42:25",
      "18:42:35",
      "19:19:35",
      "19:59:35"
    ],
    "name": "Liberal"
  },
  {
    "lon": -92.289589,
    "lat": 34.746479,
    "eclipse": "T",
    "t": [
      "17:33:35",
      "18:18:55",
      "18:51:34",
      "18:54:06",
      "19:26:35",
      "20:11:25"
    ],
    "name": "Little Rock"
  },
  {
    "lon": -118.24368,
    "lat": 34.052231,
    "eclipse": "P",
    "t": [
      "17:06:15",
      "17:36:05",
      "18:12:15",
      "18:12:25",
      "18:49:45",
      "19:22:05"
    ],
    "name": "Los Angeles"
  },
  {
    "lon": -85.759407,
    "lat": 38.254238,
    "eclipse": "P",
    "t": [
      "17:49:15",
      "18:33:55",
      "19:07:05",
      "19:07:15",
      "19:40:05",
      "20:22:45"
    ],
    "name": "Louisville"
  },
  {
    "lon": -101.85517,
    "lat": 33.577862,
    "eclipse": "P",
    "t": [
      "17:18:25",
      "17:59:45",
      "18:35:45",
      "18:35:55",
      "19:12:25",
      "19:54:55"
    ],
    "name": "Lubbock"
  },
  {
    "lon": -94.729103,
    "lat": 31.33824,
    "eclipse": "P",
    "t": [
      "17:24:05",
      "18:08:45",
      "18:43:45",
      "18:43:55",
      "19:19:05",
      "20:04:05"
    ],
    "name": "Lufkin"
  },
  {
    "lon": -79.14225,
    "lat": 37.41375,
    "eclipse": "P",
    "t": [
      "17:59:35",
      "18:40:35",
      "19:16:25",
      "19:16:35",
      "19:51:35",
      "20:29:55"
    ],
    "name": "Lynchburg"
  },
  {
    "lon": -83.632401,
    "lat": 32.840691,
    "eclipse": "P",
    "t": [
      "17:46:15",
      "18:26:25",
      "19:04:45",
      "19:04:55",
      "19:42:35",
      "20:20:45"
    ],
    "name": "Macon"
  },
  {
    "lon": -89.40123,
    "lat": 43.073051,
    "eclipse": "P",
    "t": [
      "17:51:05",
      "18:31:15",
      "19:06:05",
      "19:06:15",
      "19:40:55",
      "20:19:45"
    ],
    "name": "Madison"
  },
  {
    "lon": -87.395416,
    "lat": 46.543541,
    "eclipse": "P",
    "t": [
      "17:58:45",
      "18:36:05",
      "19:11:15",
      "19:11:25",
      "19:46:05",
      "20:22:15"
    ],
    "name": "Marquette"
  },
  {
    "lon": -122.87559,
    "lat": 42.326519,
    "eclipse": "P",
    "t": [
      "17:25:45",
      "17:48:45",
      "18:20:25",
      "18:20:35",
      "18:53:05",
      "19:17:45"
    ],
    "name": "Medford"
  },
  {
    "lon": -90.048981,
    "lat": 35.149529,
    "eclipse": "P",
    "t": [
      "17:37:55",
      "18:22:35",
      "18:56:55",
      "18:57:05",
      "19:31:05",
      "20:14:55"
    ],
    "name": "Memphis"
  },
  {
    "lon": -88.703659,
    "lat": 32.364311,
    "eclipse": "P",
    "t": [
      "17:36:05",
      "18:18:15",
      "18:55:35",
      "18:55:45",
      "19:32:35",
      "20:13:55"
    ],
    "name": "Meridian"
  },
  {
    "lon": -80.193657,
    "lat": 25.774269,
    "eclipse": "P",
    "t": [
      "17:47:55",
      "18:21:35",
      "19:01:45",
      "19:01:55",
      "19:41:25",
      "20:13:15"
    ],
    "name": "Miami"
  },
  {
    "lon": -102.07791,
    "lat": 31.997351,
    "eclipse": "P",
    "t": [
      "17:14:55",
      "17:57:15",
      "18:32:45",
      "18:32:55",
      "19:08:55",
      "19:52:45"
    ],
    "name": "Midland"
  },
  {
    "lon": -87.906471,
    "lat": 43.038898,
    "eclipse": "P",
    "t": [
      "17:52:55",
      "18:33:45",
      "19:08:05",
      "19:08:15",
      "19:42:15",
      "20:21:45"
    ],
    "name": "Milwaukee"
  },
  {
    "lon": -93.26384,
    "lat": 44.979969,
    "eclipse": "P",
    "t": [
      "17:49:45",
      "18:26:25",
      "19:02:35",
      "19:02:45",
      "19:38:35",
      "20:14:35"
    ],
    "name": "Minneapolis"
  },
  {
    "lon": -101.29627,
    "lat": 48.23251,
    "eclipse": "P",
    "t": [
      "17:48:45",
      "18:19:25",
      "18:55:15",
      "18:55:25",
      "19:31:15",
      "20:01:55"
    ],
    "name": "Minot"
  },
  {
    "lon": -113.994,
    "lat": 46.87215,
    "eclipse": "P",
    "t": [
      "17:39:05",
      "18:04:35",
      "18:38:05",
      "18:38:15",
      "19:12:15",
      "19:38:45"
    ],
    "name": "Missoula"
  },
  {
    "lon": -98.0298,
    "lat": 43.709431,
    "eclipse": "P",
    "t": [
      "17:42:45",
      "18:18:15",
      "18:54:55",
      "18:55:05",
      "19:31:55",
      "20:07:15"
    ],
    "name": "Mitchell"
  },
  {
    "lon": -88.043053,
    "lat": 30.694361,
    "eclipse": "P",
    "t": [
      "17:34:55",
      "18:15:45",
      "18:54:15",
      "18:54:25",
      "19:32:45",
      "20:12:35"
    ],
    "name": "Mobile"
  },
  {
    "lon": -120.99688,
    "lat": 37.639099,
    "eclipse": "P",
    "t": [
      "17:14:05",
      "17:40:35",
      "18:14:55",
      "18:15:05",
      "18:50:25",
      "19:18:55"
    ],
    "name": "Modesto"
  },
  {
    "lon": -92.119301,
    "lat": 32.509312,
    "eclipse": "P",
    "t": [
      "17:30:15",
      "18:14:15",
      "18:49:55",
      "18:50:05",
      "19:25:35",
      "20:09:15"
    ],
    "name": "Monroe"
  },
  {
    "lon": -79.788101,
    "lat": 40.421181,
    "eclipse": "P",
    "t": [
      "18:01:15",
      "18:44:35",
      "19:17:35",
      "19:17:45",
      "19:49:55",
      "20:30:35"
    ],
    "name": "Monroeville"
  },
  {
    "lon": -86.299973,
    "lat": 32.36681,
    "eclipse": "P",
    "t": [
      "17:40:35",
      "18:21:35",
      "18:59:35",
      "18:59:45",
      "19:37:25",
      "20:17:05"
    ],
    "name": "Montgomery"
  },
  {
    "lon": -79.955902,
    "lat": 39.629532,
    "eclipse": "P",
    "t": [
      "18:00:15",
      "18:43:05",
      "19:16:45",
      "19:16:55",
      "19:49:55",
      "20:30:05"
    ],
    "name": "Morgantown"
  },
  {
    "lon": -119.27808,
    "lat": 47.130138,
    "eclipse": "P",
    "t": [
      "17:38:15",
      "18:00:55",
      "18:32:05",
      "18:32:15",
      "19:03:55",
      "19:27:45"
    ],
    "name": "Moses Lake"
  },
  {
    "lon": -88.903122,
    "lat": 38.317268,
    "eclipse": "T",
    "t": [
      "17:44:25",
      "18:29:05",
      "19:00:36",
      "19:04:18",
      "19:35:25",
      "20:18:45"
    ],
    "name": "Mount Vernon"
  },
  {
    "lon": -85.38636,
    "lat": 40.193378,
    "eclipse": "T",
    "t": [
      "17:52:25",
      "18:36:35",
      "19:07:36",
      "19:11:19",
      "19:41:45",
      "20:24:05"
    ],
    "name": "Muncie"
  },
  {
    "lon": -86.390266,
    "lat": 35.845619,
    "eclipse": "P",
    "t": [
      "17:45:05",
      "18:28:25",
      "19:03:35",
      "19:03:45",
      "19:38:35",
      "20:20:25"
    ],
    "name": "Murfreesboro"
  },
  {
    "lon": -95.36969,
    "lat": 35.747879,
    "eclipse": "P",
    "t": [
      "17:30:55",
      "18:14:55",
      "18:49:15",
      "18:49:25",
      "19:23:35",
      "20:07:35"
    ],
    "name": "Muskogee"
  },
  {
    "lon": -86.784439,
    "lat": 36.16589,
    "eclipse": "P",
    "t": [
      "17:44:45",
      "18:28:35",
      "19:03:25",
      "19:03:35",
      "19:37:55",
      "20:20:05"
    ],
    "name": "Nashville"
  },
  {
    "lon": -91.40329,
    "lat": 31.560169,
    "eclipse": "P",
    "t": [
      "17:29:55",
      "18:13:05",
      "18:49:45",
      "18:49:55",
      "19:26:35",
      "20:09:15"
    ],
    "name": "Natchez"
  },
  {
    "lon": -70.92701,
    "lat": 41.635262,
    "eclipse": "P",
    "t": [
      "18:16:05",
      "18:56:35",
      "19:29:45",
      "19:29:55",
      "20:02:05",
      "20:39:05"
    ],
    "name": "New Bedford"
  },
  {
    "lon": -90.075073,
    "lat": 29.954651,
    "eclipse": "P",
    "t": [
      "17:29:55",
      "18:11:15",
      "18:49:35",
      "18:49:45",
      "19:28:05",
      "20:08:55"
    ],
    "name": "New Orleans"
  },
  {
    "lon": -74.005966,
    "lat": 40.714272,
    "eclipse": "P",
    "t": [
      "18:10:45",
      "18:51:45",
      "19:25:25",
      "19:25:35",
      "19:58:25",
      "20:36:15"
    ],
    "name": "New York City"
  },
  {
    "lon": -82.40126,
    "lat": 40.058121,
    "eclipse": "P",
    "t": [
      "17:56:45",
      "18:40:55",
      "19:13:35",
      "19:13:45",
      "19:45:45",
      "20:27:35"
    ],
    "name": "Newark"
  },
  {
    "lon": -97.417,
    "lat": 42.028339,
    "eclipse": "P",
    "t": [
      "17:40:15",
      "18:17:15",
      "18:53:55",
      "18:54:05",
      "19:30:45",
      "20:07:55"
    ],
    "name": "Norfolk"
  },
  {
    "lon": -97.439484,
    "lat": 35.222569,
    "eclipse": "P",
    "t": [
      "17:27:15",
      "18:10:15",
      "18:45:15",
      "18:45:25",
      "19:20:25",
      "20:03:55"
    ],
    "name": "Norman"
  },
  {
    "lon": -100.76542,
    "lat": 41.12389,
    "eclipse": "P",
    "t": [
      "17:35:05",
      "18:11:05",
      "18:48:05",
      "18:48:15",
      "19:25:35",
      "20:02:05"
    ],
    "name": "North Platte"
  },
  {
    "lon": -97.516434,
    "lat": 35.46756,
    "eclipse": "P",
    "t": [
      "17:27:35",
      "18:10:25",
      "18:45:25",
      "18:45:35",
      "19:20:45",
      "20:03:55"
    ],
    "name": "Oklahoma City"
  },
  {
    "lon": -122.9007,
    "lat": 47.037868,
    "eclipse": "P",
    "t": [
      "17:37:35",
      "17:58:35",
      "18:27:45",
      "18:27:55",
      "18:57:55",
      "19:19:45"
    ],
    "name": "Olympia"
  },
  {
    "lon": -95.94043,
    "lat": 41.25626,
    "eclipse": "P",
    "t": [
      "17:40:15",
      "18:18:55",
      "18:55:05",
      "18:55:15",
      "19:31:35",
      "20:09:55"
    ],
    "name": "Omaha"
  },
  {
    "lon": -81.379242,
    "lat": 28.53834,
    "eclipse": "P",
    "t": [
      "17:46:55",
      "18:23:15",
      "19:03:25",
      "19:03:35",
      "19:42:55",
      "20:17:15"
    ],
    "name": "Orlando"
  },
  {
    "lon": -92.411301,
    "lat": 41.020012,
    "eclipse": "P",
    "t": [
      "17:44:05",
      "18:24:45",
      "19:00:05",
      "19:00:15",
      "19:35:15",
      "20:15:15"
    ],
    "name": "Ottumwa"
  },
  {
    "lon": -85.659828,
    "lat": 30.15946,
    "eclipse": "P",
    "t": [
      "17:38:55",
      "18:18:25",
      "18:57:45",
      "18:57:55",
      "19:36:55",
      "20:14:55"
    ],
    "name": "Panama City"
  },
  {
    "lon": -95.555511,
    "lat": 33.660938,
    "eclipse": "T",
    "t": [
      "17:26:55",
      "18:11:55",
      "18:44:01",
      "18:48:00",
      "19:20:05",
      "20:05:25"
    ],
    "name": "Paris"
  },
  {
    "lon": -75.16362,
    "lat": 39.952381,
    "eclipse": "P",
    "t": [
      "18:08:25",
      "18:49:25",
      "19:23:35",
      "19:23:45",
      "19:57:05",
      "20:35:05"
    ],
    "name": "Philadelphia"
  },
  {
    "lon": -112.07404,
    "lat": 33.44838,
    "eclipse": "P",
    "t": [
      "17:08:35",
      "17:42:35",
      "18:19:55",
      "18:20:05",
      "18:58:25",
      "19:34:55"
    ],
    "name": "Phoenix"
  },
  {
    "lon": -94.704964,
    "lat": 37.410881,
    "eclipse": "P",
    "t": [
      "17:34:55",
      "18:17:45",
      "18:52:25",
      "18:52:35",
      "19:27:15",
      "20:09:55"
    ],
    "name": "Pittsburg"
  },
  {
    "lon": -79.995888,
    "lat": 40.44062,
    "eclipse": "P",
    "t": [
      "18:00:55",
      "18:44:25",
      "19:17:15",
      "19:17:25",
      "19:49:35",
      "20:30:25"
    ],
    "name": "Pittsburgh"
  },
  {
    "lon": -82.424911,
    "lat": 42.97086,
    "eclipse": "P",
    "t": [
      "18:00:05",
      "18:43:15",
      "19:15:35",
      "19:15:45",
      "19:47:25",
      "20:28:15"
    ],
    "name": "Port Huron"
  },
  {
    "lon": -80.350327,
    "lat": 27.29393,
    "eclipse": "P",
    "t": [
      "17:48:25",
      "18:23:25",
      "19:03:35",
      "19:03:45",
      "19:43:15",
      "20:16:05"
    ],
    "name": "Port Saint Lucie"
  },
  {
    "lon": -119.01677,
    "lat": 36.065231,
    "eclipse": "P",
    "t": [
      "17:10:55",
      "17:39:15",
      "18:14:45",
      "18:14:55",
      "18:51:35",
      "19:22:05"
    ],
    "name": "Porterville"
  },
  {
    "lon": -70.258904,
    "lat": 43.657372,
    "eclipse": "P",
    "t": [
      "18:18:05",
      "18:59:35",
      "19:30:55",
      "19:31:05",
      "20:01:35",
      "20:39:35"
    ],
    "name": "Portland"
  },
  {
    "lon": -122.67621,
    "lat": 45.523449,
    "eclipse": "P",
    "t": [
      "17:33:45",
      "17:55:35",
      "18:25:45",
      "18:25:55",
      "18:56:45",
      "19:19:45"
    ],
    "name": "Portland"
  },
  {
    "lon": -112.4685,
    "lat": 34.54002,
    "eclipse": "P",
    "t": [
      "17:10:45",
      "17:43:55",
      "18:21:15",
      "18:21:25",
      "18:59:35",
      "19:35:05"
    ],
    "name": "Prescott"
  },
  {
    "lon": -117.17962,
    "lat": 46.73127,
    "eclipse": "P",
    "t": [
      "17:37:45",
      "18:01:45",
      "18:34:05",
      "18:34:15",
      "19:07:05",
      "19:32:05"
    ],
    "name": "Pullman"
  },
  {
    "lon": -91.409866,
    "lat": 39.9356,
    "eclipse": "P",
    "t": [
      "17:43:35",
      "18:25:55",
      "19:00:15",
      "19:00:25",
      "19:34:35",
      "20:16:05"
    ],
    "name": "Quincy"
  },
  {
    "lon": -80.576447,
    "lat": 37.13179,
    "eclipse": "P",
    "t": [
      "17:56:35",
      "18:38:05",
      "19:13:55",
      "19:14:05",
      "19:49:15",
      "20:28:05"
    ],
    "name": "Radford"
  },
  {
    "lon": -78.638611,
    "lat": 35.772099,
    "eclipse": "P",
    "t": [
      "17:58:55",
      "18:38:45",
      "19:15:45",
      "19:15:55",
      "19:52:15",
      "20:29:15"
    ],
    "name": "Raleigh"
  },
  {
    "lon": -103.23101,
    "lat": 44.08054,
    "eclipse": "P",
    "t": [
      "17:38:55",
      "18:11:35",
      "18:48:25",
      "18:48:35",
      "19:25:25",
      "19:58:35"
    ],
    "name": "Rapid City"
  },
  {
    "lon": -92.533798,
    "lat": 44.562469,
    "eclipse": "P",
    "t": [
      "17:49:55",
      "18:27:15",
      "19:03:15",
      "19:03:25",
      "19:39:05",
      "20:15:35"
    ],
    "name": "Red Wing"
  },
  {
    "lon": -122.39168,
    "lat": 40.58654,
    "eclipse": "P",
    "t": [
      "17:21:15",
      "17:45:35",
      "18:18:05",
      "18:18:15",
      "18:51:45",
      "19:17:45"
    ],
    "name": "Redding"
  },
  {
    "lon": -119.8138,
    "lat": 39.529629,
    "eclipse": "P",
    "t": [
      "17:19:15",
      "17:45:25",
      "18:19:45",
      "18:19:55",
      "18:54:55",
      "19:22:55"
    ],
    "name": "Reno"
  },
  {
    "lon": -77.460258,
    "lat": 37.553761,
    "eclipse": "P",
    "t": [
      "18:02:35",
      "18:42:55",
      "19:18:55",
      "19:19:05",
      "19:54:15",
      "20:31:35"
    ],
    "name": "Richmond"
  },
  {
    "lon": -117.6709,
    "lat": 35.622459,
    "eclipse": "P",
    "t": [
      "17:10:25",
      "17:39:45",
      "18:15:55",
      "18:16:05",
      "18:53:05",
      "19:24:45"
    ],
    "name": "Ridgecrest"
  },
  {
    "lon": -106.66447,
    "lat": 35.233379,
    "eclipse": "P",
    "t": [
      "17:16:55",
      "17:53:35",
      "18:30:55",
      "18:31:05",
      "19:09:05",
      "19:47:25"
    ],
    "name": "Rio Rancho"
  },
  {
    "lon": -79.941429,
    "lat": 37.270969,
    "eclipse": "P",
    "t": [
      "17:57:55",
      "18:39:15",
      "19:15:05",
      "19:15:15",
      "19:50:15",
      "20:28:55"
    ],
    "name": "Roanoke"
  },
  {
    "lon": -77.615562,
    "lat": 43.154781,
    "eclipse": "T",
    "t": [
      "18:07:05",
      "18:50:25",
      "19:20:06",
      "19:23:47",
      "19:52:55",
      "20:33:15"
    ],
    "name": "Rochester"
  },
  {
    "lon": -92.469902,
    "lat": 44.021629,
    "eclipse": "P",
    "t": [
      "17:49:05",
      "18:26:45",
      "19:02:45",
      "19:02:55",
      "19:38:35",
      "20:15:45"
    ],
    "name": "Rochester"
  },
  {
    "lon": -109.2029,
    "lat": 41.58746,
    "eclipse": "P",
    "t": [
      "17:29:15",
      "18:00:25",
      "18:37:05",
      "18:37:15",
      "19:14:25",
      "19:46:45"
    ],
    "name": "Rock Springs"
  },
  {
    "lon": -89.094002,
    "lat": 42.27113,
    "eclipse": "P",
    "t": [
      "17:50:15",
      "18:31:25",
      "19:05:55",
      "19:06:05",
      "19:40:15",
      "20:20:05"
    ],
    "name": "Rockford"
  },
  {
    "lon": -91.771271,
    "lat": 37.951431,
    "eclipse": "P",
    "t": [
      "17:39:45",
      "18:23:55",
      "18:57:35",
      "18:57:45",
      "19:31:15",
      "20:14:35"
    ],
    "name": "Rolla"
  },
  {
    "lon": -85.164673,
    "lat": 34.257038,
    "eclipse": "P",
    "t": [
      "17:45:05",
      "18:26:55",
      "19:03:55",
      "19:04:05",
      "19:40:25",
      "20:20:25"
    ],
    "name": "Rome"
  },
  {
    "lon": -104.52491,
    "lat": 33.394371,
    "eclipse": "P",
    "t": [
      "17:15:05",
      "17:54:25",
      "18:31:15",
      "18:31:25",
      "19:08:45",
      "19:49:45"
    ],
    "name": "Roswell"
  },
  {
    "lon": -121.4944,
    "lat": 38.58157,
    "eclipse": "P",
    "t": [
      "17:16:25",
      "17:42:05",
      "18:15:55",
      "18:16:05",
      "18:50:45",
      "19:18:25"
    ],
    "name": "Sacramento"
  },
  {
    "lon": -83.950813,
    "lat": 43.419472,
    "eclipse": "P",
    "t": [
      "17:58:35",
      "18:40:45",
      "19:13:45",
      "19:13:55",
      "19:46:25",
      "20:26:35"
    ],
    "name": "Saginaw"
  },
  {
    "lon": -113.58412,
    "lat": 37.104149,
    "eclipse": "P",
    "t": [
      "17:16:05",
      "17:47:15",
      "18:24:05",
      "18:24:15",
      "19:01:55",
      "19:34:55"
    ],
    "name": "Saint George"
  },
  {
    "lon": -97.61142,
    "lat": 38.840279,
    "eclipse": "P",
    "t": [
      "17:33:55",
      "18:13:35",
      "18:49:45",
      "18:49:55",
      "19:26:15",
      "20:06:15"
    ],
    "name": "Salina"
  },
  {
    "lon": -121.6555,
    "lat": 36.677738,
    "eclipse": "P",
    "t": [
      "17:11:35",
      "17:37:55",
      "18:12:25",
      "18:12:35",
      "18:47:55",
      "19:16:35"
    ],
    "name": "Salinas"
  },
  {
    "lon": -75.599373,
    "lat": 38.360668,
    "eclipse": "P",
    "t": [
      "18:06:25",
      "18:46:35",
      "19:22:05",
      "19:22:15",
      "19:56:55",
      "20:33:55"
    ],
    "name": "Salisbury"
  },
  {
    "lon": -111.89105,
    "lat": 40.76078,
    "eclipse": "P",
    "t": [
      "17:25:45",
      "17:55:45",
      "18:32:05",
      "18:32:15",
      "19:09:15",
      "19:40:55"
    ],
    "name": "Salt Lake City"
  },
  {
    "lon": -100.43704,
    "lat": 31.46377,
    "eclipse": "P",
    "t": [
      "17:15:55",
      "17:59:55",
      "18:34:25",
      "18:34:35",
      "19:09:25",
      "19:54:55"
    ],
    "name": "San Angelo"
  },
  {
    "lon": -98.493629,
    "lat": 29.42412,
    "eclipse": "P",
    "t": [
      "17:14:35",
      "17:59:55",
      "18:34:15",
      "18:34:25",
      "19:09:05",
      "19:55:35"
    ],
    "name": "San Antonio"
  },
  {
    "lon": -117.16472,
    "lat": 32.71571,
    "eclipse": "P",
    "t": [
      "17:03:35",
      "17:34:35",
      "18:11:15",
      "18:11:25",
      "18:49:25",
      "19:23:05"
    ],
    "name": "San Diego"
  },
  {
    "lon": -121.89496,
    "lat": 37.33939,
    "eclipse": "P",
    "t": [
      "17:13:05",
      "17:39:05",
      "18:13:15",
      "18:13:25",
      "18:48:25",
      "19:16:35"
    ],
    "name": "San Jose"
  },
  {
    "lon": -111.528,
    "lat": 33.191101,
    "eclipse": "P",
    "t": [
      "17:08:25",
      "17:42:55",
      "18:20:25",
      "18:20:35",
      "18:58:55",
      "19:35:45"
    ],
    "name": "San Tan Valley"
  },
  {
    "lon": -82.707962,
    "lat": 41.44894,
    "eclipse": "T",
    "t": [
      "17:57:55",
      "18:41:55",
      "19:12:21",
      "19:16:05",
      "19:46:05",
      "20:27:45"
    ],
    "name": "Sandusky"
  },
  {
    "lon": -105.9378,
    "lat": 35.686981,
    "eclipse": "P",
    "t": [
      "17:18:45",
      "17:55:25",
      "18:32:55",
      "18:33:05",
      "19:10:55",
      "19:49:25"
    ],
    "name": "Santa Fe"
  },
  {
    "lon": -120.43572,
    "lat": 34.95303,
    "eclipse": "P",
    "t": [
      "17:07:35",
      "17:35:35",
      "18:10:55",
      "18:11:05",
      "18:47:35",
      "19:17:55"
    ],
    "name": "Santa Maria"
  },
  {
    "lon": -86.228828,
    "lat": 30.39603,
    "eclipse": "P",
    "t": [
      "17:38:05",
      "18:17:55",
      "18:57:05",
      "18:57:15",
      "19:35:55",
      "20:14:25"
    ],
    "name": "Santa Rosa Beach"
  },
  {
    "lon": -82.530647,
    "lat": 27.33643,
    "eclipse": "P",
    "t": [
      "17:43:05",
      "18:19:05",
      "18:59:35",
      "18:59:45",
      "19:39:35",
      "20:13:55"
    ],
    "name": "Sarasota"
  },
  {
    "lon": -81.099831,
    "lat": 32.083542,
    "eclipse": "P",
    "t": [
      "17:50:45",
      "18:29:15",
      "19:08:15",
      "19:08:25",
      "19:46:35",
      "20:22:45"
    ],
    "name": "Savannah"
  },
  {
    "lon": -75.664902,
    "lat": 41.409161,
    "eclipse": "P",
    "t": [
      "18:08:35",
      "18:50:45",
      "19:23:35",
      "19:23:45",
      "19:55:55",
      "20:34:55"
    ],
    "name": "Scranton"
  },
  {
    "lon": -91.736252,
    "lat": 35.250641,
    "eclipse": "T",
    "t": [
      "17:35:25",
      "18:20:35",
      "18:52:55",
      "18:55:54",
      "19:28:05",
      "20:12:45"
    ],
    "name": "Searcy"
  },
  {
    "lon": -122.33207,
    "lat": 47.606209,
    "eclipse": "P",
    "t": [
      "17:39:05",
      "17:59:55",
      "18:29:15",
      "18:29:25",
      "18:59:15",
      "19:21:15"
    ],
    "name": "Seattle"
  },
  {
    "lon": -106.95618,
    "lat": 44.797192,
    "eclipse": "P",
    "t": [
      "17:37:55",
      "18:08:05",
      "18:44:15",
      "18:44:25",
      "19:20:55",
      "19:52:05"
    ],
    "name": "Sheridan"
  },
  {
    "lon": -93.750183,
    "lat": 32.52515,
    "eclipse": "P",
    "t": [
      "17:27:35",
      "18:12:35",
      "18:47:15",
      "18:47:25",
      "19:22:05",
      "20:06:55"
    ],
    "name": "Shreveport"
  },
  {
    "lon": -110.30369,
    "lat": 31.554541,
    "eclipse": "P",
    "t": [
      "17:05:35",
      "17:41:55",
      "18:19:15",
      "18:19:25",
      "18:57:35",
      "19:36:35"
    ],
    "name": "Sierra Vista"
  },
  {
    "lon": -89.58786,
    "lat": 36.87672,
    "eclipse": "T",
    "t": [
      "17:41:25",
      "18:26:15",
      "18:58:03",
      "19:01:37",
      "19:33:05",
      "20:16:55"
    ],
    "name": "Sikeston"
  },
  {
    "lon": -96.400307,
    "lat": 42.499989,
    "eclipse": "P",
    "t": [
      "17:42:05",
      "18:19:25",
      "18:55:55",
      "18:56:05",
      "19:32:35",
      "20:09:35"
    ],
    "name": "Sioux City"
  },
  {
    "lon": -96.700333,
    "lat": 43.549969,
    "eclipse": "P",
    "t": [
      "17:43:45",
      "18:19:55",
      "18:56:35",
      "18:56:45",
      "19:33:15",
      "20:09:25"
    ],
    "name": "Sioux Falls"
  },
  {
    "lon": -86.250008,
    "lat": 41.68338,
    "eclipse": "P",
    "t": [
      "17:53:15",
      "18:36:15",
      "19:09:25",
      "19:09:35",
      "19:42:15",
      "20:23:35"
    ],
    "name": "South Bend"
  },
  {
    "lon": -117.42908,
    "lat": 47.65966,
    "eclipse": "P",
    "t": [
      "17:39:55",
      "18:03:15",
      "18:34:55",
      "18:35:05",
      "19:07:25",
      "19:31:45"
    ],
    "name": "Spokane"
  },
  {
    "lon": -93.298241,
    "lat": 37.215328,
    "eclipse": "P",
    "t": [
      "17:36:25",
      "18:20:15",
      "18:54:15",
      "18:54:25",
      "19:28:15",
      "20:11:55"
    ],
    "name": "Springfield"
  },
  {
    "lon": -89.643707,
    "lat": 39.80172,
    "eclipse": "P",
    "t": [
      "17:45:45",
      "18:29:15",
      "19:02:45",
      "19:02:55",
      "19:36:15",
      "20:18:35"
    ],
    "name": "Springfield"
  },
  {
    "lon": -72.589813,
    "lat": 42.101479,
    "eclipse": "P",
    "t": [
      "18:13:55",
      "18:55:15",
      "19:27:45",
      "19:27:55",
      "19:59:45",
      "20:37:45"
    ],
    "name": "Springfield"
  },
  {
    "lon": -90.197891,
    "lat": 38.62727,
    "eclipse": "P",
    "t": [
      "17:43:05",
      "18:27:25",
      "19:00:45",
      "19:00:55",
      "19:33:55",
      "20:17:15"
    ],
    "name": "St. Louis"
  },
  {
    "lon": -77.860001,
    "lat": 40.793388,
    "eclipse": "P",
    "t": [
      "18:04:45",
      "18:47:25",
      "19:20:25",
      "19:20:35",
      "19:52:55",
      "20:32:45"
    ],
    "name": "State College"
  },
  {
    "lon": -74.139862,
    "lat": 40.562328,
    "eclipse": "P",
    "t": [
      "18:10:25",
      "18:51:25",
      "19:25:15",
      "19:25:25",
      "19:58:25",
      "20:36:05"
    ],
    "name": "Staten Island"
  },
  {
    "lon": -98.202263,
    "lat": 32.220699,
    "eclipse": "T",
    "t": [
      "17:20:25",
      "18:05:25",
      "18:39:01",
      "18:39:28",
      "19:13:45",
      "19:59:35"
    ],
    "name": "Stephenville"
  },
  {
    "lon": -120.65301,
    "lat": 40.416279,
    "eclipse": "P",
    "t": [
      "17:21:15",
      "17:46:35",
      "18:20:05",
      "18:20:15",
      "18:54:35",
      "19:21:35"
    ],
    "name": "Susanville"
  },
  {
    "lon": -76.147423,
    "lat": 43.048119,
    "eclipse": "T",
    "t": [
      "18:09:15",
      "18:52:25",
      "19:23:01",
      "19:24:31",
      "19:54:25",
      "20:34:45"
    ],
    "name": "Syracuse"
  },
  {
    "lon": -122.44429,
    "lat": 47.25288,
    "eclipse": "P",
    "t": [
      "17:38:15",
      "17:59:15",
      "18:28:35",
      "18:28:45",
      "18:58:45",
      "19:20:55"
    ],
    "name": "Tacoma"
  },
  {
    "lon": -84.280731,
    "lat": 30.438259,
    "eclipse": "P",
    "t": [
      "17:42:15",
      "18:21:05",
      "19:00:35",
      "19:00:45",
      "19:39:45",
      "20:16:55"
    ],
    "name": "Tallahassee"
  },
  {
    "lon": -82.458427,
    "lat": 27.947519,
    "eclipse": "P",
    "t": [
      "17:43:45",
      "18:20:05",
      "19:00:35",
      "19:00:45",
      "19:40:25",
      "20:14:55"
    ],
    "name": "Tampa"
  },
  {
    "lon": -121.17868,
    "lat": 45.594559,
    "eclipse": "P",
    "t": [
      "17:34:15",
      "17:56:35",
      "18:27:35",
      "18:27:45",
      "18:59:25",
      "19:23:05"
    ],
    "name": "The Dalles"
  },
  {
    "lon": -74.197922,
    "lat": 39.953732,
    "eclipse": "P",
    "t": [
      "18:09:55",
      "18:50:35",
      "19:24:55",
      "19:25:05",
      "19:58:35",
      "20:35:55"
    ],
    "name": "Toms River"
  },
  {
    "lon": -95.67804,
    "lat": 39.048328,
    "eclipse": "P",
    "t": [
      "17:36:35",
      "18:17:15",
      "18:52:55",
      "18:53:05",
      "19:28:45",
      "20:09:25"
    ],
    "name": "Topeka"
  },
  {
    "lon": -85.620628,
    "lat": 44.763062,
    "eclipse": "P",
    "t": [
      "17:58:15",
      "18:38:05",
      "19:12:25",
      "19:12:35",
      "19:46:15",
      "20:24:35"
    ],
    "name": "Traverse City"
  },
  {
    "lon": -119.19617,
    "lat": 46.245399,
    "eclipse": "P",
    "t": [
      "17:36:05",
      "17:59:15",
      "18:30:55",
      "18:31:05",
      "19:03:15",
      "19:27:35"
    ],
    "name": "Tri-Cities"
  },
  {
    "lon": -110.92648,
    "lat": 32.221741,
    "eclipse": "P",
    "t": [
      "17:06:35",
      "17:42:05",
      "18:19:25",
      "18:19:35",
      "18:57:55",
      "19:35:55"
    ],
    "name": "Tucson"
  },
  {
    "lon": -95.992767,
    "lat": 36.15398,
    "eclipse": "P",
    "t": [
      "17:30:45",
      "18:14:05",
      "18:48:45",
      "18:48:55",
      "19:23:35",
      "20:07:05"
    ],
    "name": "Tulsa"
  },
  {
    "lon": -88.704643,
    "lat": 34.258072,
    "eclipse": "P",
    "t": [
      "17:38:45",
      "18:22:15",
      "18:57:55",
      "18:58:05",
      "19:33:35",
      "20:15:55"
    ],
    "name": "Tupelo"
  },
  {
    "lon": -114.46087,
    "lat": 42.562969,
    "eclipse": "P",
    "t": [
      "17:28:45",
      "17:56:25",
      "18:31:25",
      "18:31:35",
      "19:07:25",
      "19:36:25"
    ],
    "name": "Twin Falls"
  },
  {
    "lon": -95.301064,
    "lat": 32.351261,
    "eclipse": "T",
    "t": [
      "17:24:55",
      "18:10:15",
      "18:43:25",
      "18:45:23",
      "19:18:45",
      "20:04:25"
    ],
    "name": "Tyler"
  },
  {
    "lon": -123.20778,
    "lat": 39.150169,
    "eclipse": "P",
    "t": [
      "17:17:25",
      "17:41:55",
      "18:14:45",
      "18:14:55",
      "18:48:35",
      "19:14:55"
    ],
    "name": "Ukiah"
  },
  {
    "lon": -75.232658,
    "lat": 43.100899,
    "eclipse": "P",
    "t": [
      "18:10:35",
      "18:53:35",
      "19:24:55",
      "19:25:05",
      "19:55:35",
      "20:35:35"
    ],
    "name": "Utica"
  },
  {
    "lon": -83.280319,
    "lat": 30.83334,
    "eclipse": "P",
    "t": [
      "17:44:45",
      "18:23:25",
      "19:02:55",
      "19:03:05",
      "19:41:45",
      "20:18:35"
    ],
    "name": "Valdosta"
  },
  {
    "lon": -87.061142,
    "lat": 41.473091,
    "eclipse": "P",
    "t": [
      "17:51:45",
      "18:34:45",
      "19:08:05",
      "19:08:15",
      "19:41:05",
      "20:22:25"
    ],
    "name": "Valparaiso"
  },
  {
    "lon": -122.66149,
    "lat": 45.638729,
    "eclipse": "P",
    "t": [
      "17:34:05",
      "17:55:45",
      "18:25:55",
      "18:26:05",
      "18:56:55",
      "19:19:45"
    ],
    "name": "Vancouver"
  },
  {
    "lon": -97.003601,
    "lat": 28.805269,
    "eclipse": "P",
    "t": [
      "17:15:45",
      "18:00:05",
      "18:35:45",
      "18:35:55",
      "19:11:45",
      "19:57:05"
    ],
    "name": "Victoria"
  },
  {
    "lon": -75.977989,
    "lat": 36.852928,
    "eclipse": "P",
    "t": [
      "18:04:45",
      "18:44:05",
      "19:20:45",
      "19:20:55",
      "19:56:25",
      "20:32:35"
    ],
    "name": "Virginia Beach"
  },
  {
    "lon": -97.146667,
    "lat": 31.54933,
    "eclipse": "T",
    "t": [
      "17:20:35",
      "18:05:45",
      "18:38:00",
      "18:42:14",
      "19:14:35",
      "20:00:35"
    ],
    "name": "Waco"
  },
  {
    "lon": -93.736053,
    "lat": 38.762791,
    "eclipse": "P",
    "t": [
      "17:38:35",
      "18:20:35",
      "18:55:35",
      "18:55:45",
      "19:30:25",
      "20:12:15"
    ],
    "name": "Warrensburg"
  },
  {
    "lon": -71.416168,
    "lat": 41.7001,
    "eclipse": "P",
    "t": [
      "18:15:25",
      "18:55:55",
      "19:29:05",
      "19:29:15",
      "20:01:25",
      "20:38:35"
    ],
    "name": "Warwick"
  },
  {
    "lon": -77.036369,
    "lat": 38.895111,
    "eclipse": "P",
    "t": [
      "18:04:25",
      "18:45:25",
      "19:20:25",
      "19:20:35",
      "19:54:35",
      "20:32:45"
    ],
    "name": "Washington"
  },
  {
    "lon": -89.630119,
    "lat": 44.959141,
    "eclipse": "P",
    "t": [
      "17:53:45",
      "18:31:55",
      "19:07:25",
      "19:07:35",
      "19:42:35",
      "20:19:35"
    ],
    "name": "Wausau"
  },
  {
    "lon": -102.49876,
    "lat": 31.84235,
    "eclipse": "P",
    "t": [
      "17:14:05",
      "17:56:15",
      "18:31:45",
      "18:31:55",
      "19:08:05",
      "19:51:45"
    ],
    "name": "West Odessa"
  },
  {
    "lon": -97.33754,
    "lat": 37.692242,
    "eclipse": "P",
    "t": [
      "17:32:05",
      "18:12:55",
      "18:48:45",
      "18:48:55",
      "19:24:55",
      "20:06:05"
    ],
    "name": "Wichita"
  },
  {
    "lon": -98.493393,
    "lat": 33.913712,
    "eclipse": "P",
    "t": [
      "17:23:15",
      "18:06:45",
      "18:41:35",
      "18:41:45",
      "19:16:45",
      "20:00:55"
    ],
    "name": "Wichita Falls"
  },
  {
    "lon": -103.61797,
    "lat": 48.146969,
    "eclipse": "P",
    "t": [
      "17:47:05",
      "18:16:45",
      "18:52:15",
      "18:52:25",
      "19:28:15",
      "19:58:15"
    ],
    "name": "Williston"
  },
  {
    "lon": -95.043343,
    "lat": 45.12191,
    "eclipse": "P",
    "t": [
      "17:48:15",
      "18:23:55",
      "19:00:15",
      "19:00:25",
      "19:36:45",
      "20:12:05"
    ],
    "name": "Willmar"
  },
  {
    "lon": -77.94471,
    "lat": 34.225731,
    "eclipse": "P",
    "t": [
      "17:59:05",
      "18:37:25",
      "19:15:35",
      "19:15:45",
      "19:52:45",
      "20:28:25"
    ],
    "name": "Wilmington"
  },
  {
    "lon": -120.5059,
    "lat": 46.60207,
    "eclipse": "P",
    "t": [
      "17:36:45",
      "17:59:05",
      "18:29:55",
      "18:30:05",
      "19:01:25",
      "19:24:55"
    ],
    "name": "Yakima"
  },
  {
    "lon": -114.6244,
    "lat": 32.725319,
    "eclipse": "P",
    "t": [
      "17:05:05",
      "17:37:45",
      "18:14:55",
      "18:15:05",
      "18:53:25",
      "19:28:45"
    ],
    "name": "Yuma"
  }
]
